[
  {
    "title": "Back-end Developer",
    "company_name": "ContaAzul",
    "featured": true,
    "company_logo": "./assets/images/logos-vagas/contaazul.png",
    "link": "https://jobs.kenoby.com/contaazul/job/desenvolvedora-backend-backend-developer/5b9fab28f706072b766ba4cb",
    "type": "Full-Time - CLT",
    "date": "2018-09-29T01:55:06.311Z",
    "location": {
      "city": "Joinville",
      "state": "SC"
    }
  },

  {
    "title": "Front-end Developer",
    "company_name": "ContaAzul",
    "featured": true,
    "company_logo": "./assets/images/logos-vagas/contaazul.png",
    "link": "https://jobs.kenoby.com/contaazul/job/desenvolvedora-backend-backend-developer/5b9fab28f706072b766ba4cb",
    "type": "Full-Time - CLT",
    "date": "2018-09-29T01:55:06.311Z",
    "location": {
      "city": "Joinville",
      "state": "SC"
    }
  },

  {
    "title": "UX Designer",
    "company_name": "ContaAzul",
    "featured": true,
    "company_logo": "./assets/images/logos-vagas/contaazul.png",
    "link": "https://jobs.kenoby.com/contaazul/job/ux-designer/5b9fd811ea23aa6716a725ed",
    "type": "Full-Time - CLT",
    "date": "2018-09-29T01:55:06.311Z",
    "location": {
      "city": "Joinville",
      "state": "SC"
    }
  },

  {
    "title": "Backend Specialist",
    "company_name": "ContaAzul",
    "featured": true,
    "company_logo": "./assets/images/logos-vagas/contaazul.png",
    "link": "https://jobs.kenoby.com/contaazul/job/especialista-backend-backend-specialist/5b9facd4f706072b766bc4be",
    "type": "Full-Time - CLT",
    "date": "2018-09-29T01:55:06.311Z",
    "location": {
      "city": "Joinville",
      "state": "SC"
    }
  },

  {
    "title": "Coordenador(a) de UX",
    "company_name": "ContaAzul",
    "featured": true,
    "company_logo": "./assets/images/logos-vagas/contaazul.png",
    "link": "https://jobs.kenoby.com/contaazul/job/coordenadora-de-ux/5ba2a376b0a9860c27a6b430",
    "type": "Full-Time - CLT",
    "date": "2018-09-29T01:55:06.311Z",
    "location": {
      "city": "Joinville",
      "state": "SC"
    }
  },

  {
    "title": "Desenvolvedor Web PHP",
    "company_name": "Portabilis",
    "featured": true,
    "company_logo": "./assets/images/logos-vagas/portabilis.png",
    "link": "https://www.portabilis.com.br/site-novo/oportunidades/desenvolvedor-web-php",
    "type": "Full-Time - CLT",
    "date": "2018-09-29T01:55:06.311Z",
    "location": {
      "city": "Içara",
      "state": "SC"
    }
  },

  {
    "title": "Desenvolvedor PHP Sênior",
    "company_name": "Portabilis",
    "featured": true,
    "company_logo": "./assets/images/logos-vagas/portabilis.png",
    "link": "https://www.portabilis.com.br/site-novo/oportunidades/desenvolvedor-php-senior",
    "type": "Full-Time - CLT",
    "date": "2018-09-29T01:55:06.311Z",
    "location": {
      "city": "Içara",
      "state": "SC"
    }
  },

  {
    "title": "Desenvolvedor Web Rails",
    "company_name": "Portabilis",
    "featured": true,
    "company_logo": "./assets/images/logos-vagas/portabilis.png",
    "link": "https://www.portabilis.com.br/site-novo/oportunidades/desenvolvedor-web-rails",
    "type": "Full-Time - CLT",
    "date": "2018-09-29T01:55:06.311Z",
    "location": {
      "city": "Içara",
      "state": "SC"
    }
  },

  {
    "title": "Analista de Suporte",
    "company_name": "Portabilis",
    "featured": true,
    "company_logo": "./assets/images/logos-vagas/portabilis.png",
    "link": "https://www.portabilis.com.br/site-novo/oportunidades/analista-de-suporte",
    "type": "Full-Time - CLT",
    "date": "2018-09-29T01:55:06.311Z",
    "location": {
      "city": "Içara",
      "state": "SC"
    }
  },

  {
    "title": "Globo Play - Desenvolvedor(a) Web",
    "company_name": "Globo.com",
    "featured": true,
    "company_logo": "./assets/images/logos-vagas/globo.png",
    "link": "https://talentos.globo.com/#/oportunidades/globo-play-desenvolvedor-a-web/mp0h4ae",
    "type": "Full-Time - CLT",
    "date": "2018-09-29T01:55:06.311Z",
    "location": {
      "city": "Porto Alegre",
      "state": "RS"
    }
  },

  {
    "title": "Interatividade - Desenvolvedor(a) de Software",
    "company_name": "Globo.com",
    "featured": true,
    "company_logo": "./assets/images/logos-vagas/globo.png",
    "link": "https://talentos.globo.com/#/oportunidades/interatividade-desenvolvedor-a-de-software/mp0jiks",
    "type": "Full-Time - CLT",
    "date": "2018-09-29T01:55:06.311Z",
    "location": {
      "city": "Porto Alegre",
      "state": "RS"
    }
  },

  {
    "title": "Interatividade - Desenvolvedor(a) de Software",
    "company_name": "Globo.com",
    "featured": true,
    "company_logo": "./assets/images/logos-vagas/globo.png",
    "link": "https://talentos.globo.com/#/oportunidades/interatividade-desenvolvedor-a-de-software/mp0jiks",
    "type": "Full-Time - CLT",
    "date": "2018-09-29T01:55:06.311Z",
    "location": {
      "city": "Porto Alegre",
      "state": "RS"
    }
  },

  {
    "title": "Analista de Testes / Tester",
    "company_name": "Useall",
    "featured": true,
    "company_logo": "./assets/images/logos-vagas/useall.png",
    "link": "http://www.useall.com.br/trabalhe",
    "type": "Full-Time - CLT",
    "date": "2018-09-29T01:55:06.311Z",
    "location": {
      "city": "Criciúma",
      "state": "SC"
    }
  },

  {
    "title": "Programador C#",
    "company_name": "Useall",
    "featured": true,
    "company_logo": "./assets/images/logos-vagas/useall.png",
    "link": "http://www.useall.com.br/trabalhe",
    "type": "Full-Time - CLT",
    "date": "2018-09-29T01:55:06.311Z",
    "location": {
      "city": "Criciúma",
      "state": "SC"
    }
  },

  {
    "title": "Programador Web",
    "company_name": "Useall",
    "featured": true,
    "company_logo": "./assets/images/logos-vagas/useall.png",
    "link": "http://www.useall.com.br/trabalhe",
    "type": "Full-Time - CLT",
    "date": "2018-09-29T01:55:06.311Z",
    "location": {
      "city": "Criciúma",
      "state": "SC"
    }
  },

  {
    "title": "Analista de Testes",
    "company_name": "Betha Sistemas",
    "featured": false,
    "color": "#000C84",
    "link": "http://www.kombo.com.br/curriculo/visualizar_vaga.php?cid=NzctMA&codigo_vaga=k77-1583#.W6-wLRNKjaY",
    "type": "Full-Time - CLT",
    "date": "2018-09-29T01:55:06.311Z",
    "location": {
      "city": "Criciúma",
      "state": "SC"
    }
  },

  {
    "title": "Arquiteto(a) de Sistemas",
    "company_name": "Betha Sistemas",
    "featured": false,
    "color": "#000C84",
    "link": "http://www.kombo.com.br/curriculo/visualizar_vaga.php?cid=NzctMA&codigo_vaga=k77-1586#.W6-wJhNKjaY",
    "type": "Full-Time - CLT",
    "date": "2018-09-29T01:55:06.311Z",
    "location": {
      "city": "Criciúma",
      "state": "SC"
    }
  },

  {
    "title": "Desenvolvedor Web",
    "company_name": "Sistema Info",
    "featured": false,
    "color": "#DA2337",
    "link": "http://www.sistemainfo.com.br/cadastre-seu-curriculo/vaga/53",
    "type": "Full-Time - CLT",
    "date": "2018-09-29T01:55:06.311Z",
    "location": {
      "city": "Criciúma",
      "state": "SC"
    }
  },

  {
    "title": "Analista de sistemas",
    "company_name": "Sistema Info",
    "featured": false,
    "color": "#DA2337",
    "link": "http://www.sistemainfo.com.br/cadastre-seu-curriculo/vaga/55",
    "type": "Full-Time - CLT",
    "date": "2018-09-29T01:55:06.311Z",
    "location": {
      "city": "Criciúma",
      "state": "SC"
    }
  },

  {
    "title": "Programador Front-end",
    "company_name": "TW Sistemas",
    "featured": false,
    "color": "#0BA7A5",
    "link": "http://twsistemas.com.br/trabalhe-conosco",
    "type": "Full-Time - CLT",
    "date": "2018-09-29T01:55:06.311Z",
    "location": {
      "city": "Criciúma",
      "state": "SC"
    }
  },

  {
    "title": "Suporte técnico",
    "company_name": "TW Sistemas",
    "featured": false,
    "color": "#0BA7A5",
    "link": "http://twsistemas.com.br/trabalhe-conosco",
    "type": "Full-Time - CLT",
    "date": "2018-09-29T01:55:06.311Z",
    "location": {
      "city": "Criciúma",
      "state": "SC"
    }
  }

]